[{
        "name": "ห้างหุ้นส่วนจำกัด ปึงยู่เฮง",
        "address": "135 Nam Kỳ Khởi Nghĩa, Phường Bến Thành, Quận 1, Hồ Chí Minh 700000",
        "coords": {
            "latitude": 15.176073,
            "longitude": 104.848176
        },
        "image_url": "https://media.glassdoor.com/l/de/cd/ae/b6/the-face-shop.jpg"
    },
    {
        "name": "Turtle Lake",
        "address": "Turtle Lake, phường 6, District 3, Ho Chi Minh City",
        "coords": {
            "latitude":  15.176125, 
            "longitude": 104.847350
        },
        "image_url": "http://dreamercosmetic.com/uploads/source/chekd101/trangdiem/bomyphamchanel5moncaocap11600x450.jpg"
    },
    {
        "name": "mor ubon",
        "address": "208 Nguyễn Hữu Cảnh, Phường 22, Bình Thạnh, Hồ Chí Minh 700000",
        "coords": {
            "latitude": 15.117250, 
            "longitude": 104.903105
        },
        "image_url": "https://www.vinpearl.com/landmark81/wp-content/uploads/sites/39/2018/09/VP-Luxury-Landmark-81-22-bot.jpg"
    },
    {
        "name": "ช่างสำราญ",
        "address": "Bùi ViệnPhạm Ngũ Lão, Quận 1, Hồ Chí Minh",
        "coords": {
            "latitude": 15.122935, 
            "longitude": 104.899215
        },
        "image_url": "http://i.dtinews.vn/images/editor/images/ngovan/12018/19/Big/pho-di-bo-bui-vien-anh-hoang-trieuimg8663-1516201119295.jpg"
    },
    {
        "name": "Ben Thanh Market",
        "address": "Chợ, Lê Lợi, Phường Bến Thành, Quận 1, Hồ Chí Minh 700000",
        "coords": {
            "latitude": 10.772550,
            "longitude": 106.699417
        },
        "image_url": "http://static.asiawebdirect.com/m/bangkok/portals/vietnam/homepage/ho-chi-minh-city/ben-thanh-market/allParagraphs/BucketComponent/ListingContainer/03/image/ben-thanh-market-ext.jpg"
    }
]